City_ID,City,Lat,Lng,Max Temp,Humidity,Cloudiness,Wind Speed,Country,Date
0,bethel,41.3712,-73.414,294.08,68,0,2.06,US,1718503102
1,semnan,35.5729,53.3971,298.32,43,0,1.42,IR,1718503382
2,iqaluit,63.7506,-68.5145,276.0,93,100,2.06,CA,1718503323
3,whitehorse,60.7161,-135.0538,291.1,45,75,6.69,CA,1718503274
4,puerto natales,-51.7236,-72.4875,273.02,93,100,1.7,CL,1718503239
5,cafayate,-26.073,-65.9761,284.77,81,2,1.43,AR,1718503231
6,igarka,67.4667,86.5833,282.6,73,70,3.13,RU,1718503382
7,carolina beach,34.0352,-77.8936,299.86,89,68,0.89,US,1718503345
8,puerto ayora,-0.7393,-90.3518,295.68,95,22,3.13,EC,1718503382
9,tiksi,71.6872,128.8694,279.56,70,89,4.19,RU,1718503382
10,cam ranh,11.9214,109.1591,305.13,66,0,2.57,VN,1718503383
11,tindouf,27.6711,-8.1474,301.4,23,29,3.6,DZ,1718503383
12,ust-nera,64.5667,143.2,294.37,36,17,1.93,RU,1718503383
13,port-aux-francais,-49.35,70.2167,274.68,69,98,6.12,TF,1718503383
14,edinburgh of the seven seas,-37.0676,-12.3116,288.9,94,96,11.31,SH,1718503227
15,mandera,3.9366,41.867,296.8,54,98,5.53,KE,1718503383
16,port augusta,-32.5,137.7667,289.09,47,67,1.51,AU,1718503383
17,passau,48.5712,13.449,288.74,99,100,1.26,DE,1718503383
18,coquimbo,-29.9533,-71.3436,287.0,79,0,2.57,CL,1718503167
19,puerto madryn,-42.7692,-65.0385,282.21,47,6,2.34,AR,1718503247
20,nemuro,43.3236,145.575,287.59,94,81,5.38,JP,1718503383
21,cadale,2.7603,46.3222,299.11,78,34,7.98,SO,1718503384
22,edwards,39.645,-106.5942,297.72,47,19,2.26,US,1718503384
23,manta,-0.95,-80.7333,298.03,78,75,3.09,EC,1718503209
24,ribeira grande,38.5167,-28.7,294.14,93,71,4.47,PT,1718503384
25,maamba,-17.3667,27.15,283.8,52,0,1.21,ZM,1718503384
26,quezon,7.7303,125.0989,302.15,64,100,0.8,PH,1718503384
27,pariaman,-0.619,100.12,301.18,96,100,1.62,ID,1718503094
28,vorgashor,67.5833,63.95,276.93,81,100,3.34,RU,1718503384
29,ceres,37.5949,-120.9577,304.02,18,0,7.12,US,1718503208
30,adamstown,-25.066,-130.1015,294.0,58,34,1.01,PN,1718503383
31,tsiombe,-25.3,45.4833,291.88,73,95,0.36,MG,1718503385
32,zhalantun,48.0,122.7167,298.97,39,68,3.84,CN,1718503385
33,hasaki,35.7333,140.8333,298.31,81,100,1.79,JP,1718503385
34,jamestown,42.097,-79.2353,289.95,59,0,2.06,US,1718503348
35,tazovsky,67.4667,78.7,278.03,69,29,4.24,RU,1718503385
36,kaa-khem,51.6833,94.7333,296.71,37,15,1.32,RU,1718503385
37,east wenatchee bench,47.4257,-120.2812,289.7,38,0,9.26,US,1718503385
38,stanley,54.868,-1.6985,281.36,94,0,2.57,GB,1718503385
39,geraldton,-28.7667,114.6,290.38,88,100,4.12,AU,1718503385
40,waitangi,-43.9535,-176.5597,286.94,90,0,2.24,NZ,1718503184
41,enewetak,11.3474,162.3373,301.4,74,25,7.58,MH,1718503385
42,xilin hot,43.9667,116.0333,297.95,22,28,6.36,CN,1718503386
43,grytviken,-54.2811,-36.5092,268.31,78,20,4.45,GS,1718503174
44,san patricio,28.017,-97.5169,304.09,66,0,5.35,US,1718503386
45,queenstown,-31.8976,26.8753,279.96,79,68,0.59,ZA,1718503334
46,udachny,66.4167,112.4,283.95,44,100,7.0,RU,1718503273
47,albany,42.6001,-73.9662,286.83,66,5,2.18,US,1718503118
48,kidal,18.4411,1.4078,305.31,26,0,4.77,ML,1718503386
49,bredasdorp,-34.5322,20.0403,284.6,93,83,2.66,ZA,1718503386
50,alice springs,-23.7,133.8833,291.9,45,0,2.57,AU,1718503288
51,salinopolis,-0.6136,-47.3561,299.05,87,21,4.75,BR,1718503386
52,novyy urengoy,66.0833,76.6333,280.1,62,40,5.41,RU,1718503387
53,wanning,18.8003,110.3967,304.42,73,100,5.0,CN,1718503387
54,ushuaia,-54.8,-68.3,270.96,80,75,2.06,AR,1718503232
55,olonkinbyen,70.9221,-8.7187,274.14,91,99,0.09,SJ,1718503387
56,ontario,34.0633,-117.6509,307.84,42,0,6.26,US,1718503114
57,valchedram,43.6964,23.4447,288.51,76,0,0.65,BG,1718503387
58,klyuchi,52.2667,79.1667,296.31,67,99,2.57,RU,1718503387
59,yellowknife,62.456,-114.3525,287.44,66,75,8.23,CA,1718503287
60,tual,-5.6667,132.75,299.24,76,91,9.61,ID,1718503387
61,huarmey,-10.0681,-78.1522,290.92,86,20,4.61,PE,1718503387
62,kavaratti,10.5669,72.642,301.12,83,100,7.87,IN,1718503388
63,yazd,31.8972,54.3675,298.21,31,40,0.0,IR,1718503388
64,flying fish cove,-10.4217,105.6791,299.97,89,75,5.14,CX,1718503253
65,zhangatas,43.5667,69.75,299.32,28,0,3.55,KZ,1718503388
66,natal,-5.795,-35.2094,297.51,100,75,3.6,BR,1718503338
67,port mathurin,-19.6833,63.4167,297.45,65,100,7.18,MU,1718503226
68,almeirim,-1.5233,-52.5817,297.15,88,75,1.15,BR,1718503272
69,bela,25.9333,81.9833,313.27,21,62,4.57,IN,1718503388
70,khandyga,62.6667,135.6,297.29,27,5,4.18,RU,1718503388
71,nar'yan-mar,67.6713,53.087,278.21,66,11,3.58,RU,1718503388
72,kutum,14.2,24.6667,298.69,46,66,4.06,SD,1718503388
73,ujhani,28.0167,79.0167,311.58,20,0,4.16,IN,1718503389
74,taoudenni,22.6783,-3.9836,309.43,10,0,6.2,ML,1718503389
75,constantia,44.1833,28.65,288.54,73,0,3.44,RO,1718503127
76,carnarvon,-24.8667,113.6333,293.61,82,100,4.38,AU,1718503389
77,manavalakurichi,8.1333,77.3,300.3,82,71,5.54,IN,1718503389
78,gaspe,48.8334,-64.4819,286.1,62,40,2.06,CA,1718503165
79,ak'ordat,15.5486,37.8867,302.62,49,3,1.88,ER,1718503389
80,hawaiian paradise park,19.5933,-154.9731,300.88,71,75,4.12,US,1718503389
81,bengkulu,-3.8004,102.2655,300.76,75,100,0.54,ID,1718503389
82,bilibino,68.0546,166.4372,294.25,27,81,1.79,RU,1718503389
83,chishtian,29.8,72.8667,309.04,34,0,6.32,PK,1718503389
84,saint-philippe,-21.3585,55.7679,294.88,92,93,1.14,RE,1718503390
85,shenjiamen,29.9576,122.298,297.58,87,99,2.84,CN,1718503258
86,qaqortoq,60.7167,-46.0333,276.84,87,100,1.1,GL,1718503390
87,bogotol,56.2078,89.5342,296.25,69,11,2.69,RU,1718503390
88,afaahiti,-17.75,-149.2833,301.08,84,49,6.87,PF,1718503390
89,chonchi,-42.6128,-73.8092,280.71,92,100,2.02,CL,1718503390
90,puerto baquerizo moreno,-0.9,-89.6,294.69,84,54,6.43,EC,1718503211
91,phulpur,25.55,82.1,313.79,23,43,8.09,IN,1718503390
92,magong,23.5654,119.5863,301.24,87,34,6.53,TW,1718503391
93,chibougamau,49.9168,-74.3659,286.94,47,0,1.54,CA,1718503391
94,erdek,40.3996,27.7935,292.77,78,0,2.0,TR,1718503391
95,invercargill,-46.4,168.35,282.05,99,99,0.45,NZ,1718503391
96,saldanha,-33.0117,17.9442,285.18,73,100,3.07,ZA,1718503391
97,wailua homesteads,22.0669,-159.378,303.39,80,15,2.24,US,1718503326
98,aasiaat,68.7098,-52.8699,275.75,88,18,2.77,GL,1718503391
99,portland,45.5234,-122.6762,290.66,60,0,6.69,US,1718503180
100,lobujya,27.95,86.8167,276.35,46,84,0.97,NP,1718503391
101,iskateley,67.6803,53.1512,278.16,66,10,3.58,RU,1718503391
102,kuta,-8.7233,115.1723,301.12,78,40,3.13,ID,1718503391
103,gadzhiyevo,69.2551,33.3362,283.78,94,100,4.11,RU,1718503392
104,kudahuvadhoo,2.6708,72.8944,301.65,75,2,4.34,MV,1718503392
105,manaure,11.7751,-72.4445,302.03,75,100,2.85,CO,1718503392
106,uturoa,-16.7333,-151.4333,300.06,79,16,8.03,PF,1718503392
107,ocean city,39.2776,-74.5746,295.25,78,0,0.89,US,1718503392
108,tofol,5.3248,163.0078,303.03,79,75,1.54,FM,1718503392
109,lazaro cardenas,17.9583,-102.2,301.0,84,23,2.03,MX,1718503392
110,badger,64.8,-147.5333,297.29,41,0,4.63,US,1718503392
111,greymouth,-42.4667,171.2,285.04,87,97,6.41,NZ,1718503392
112,charters towers,-20.1,146.2667,296.09,25,0,4.22,AU,1718503392
113,marsh harbour,26.5412,-77.0636,301.28,78,100,3.24,BS,1718503203
114,nuuk,64.1835,-51.7216,283.49,66,75,8.23,GL,1718503393
115,luderitz,-26.6481,15.1594,293.63,23,24,4.61,NA,1718503393
116,tosontsengel,48.7567,98.2839,290.66,53,58,1.12,MN,1718503393
117,west island,-12.1568,96.8225,299.14,94,75,8.75,CC,1718503211
118,blackmans bay,-43.0167,147.3167,283.56,79,100,0.89,AU,1718503269
119,shingu,33.7333,135.9833,298.47,82,74,3.04,JP,1718503393
120,aberdeen,57.1437,-2.0981,284.42,96,100,4.12,GB,1718503393
121,petropavlovsk-kamchatsky,53.0452,158.6483,287.48,90,75,7.0,RU,1718503393
122,cabo san lucas,22.8909,-109.9124,300.16,80,1,3.13,MX,1718502958
123,mukalla,14.5425,49.1242,302.47,71,65,2.55,YE,1718503394
124,hovd,48.0056,91.6419,293.37,42,90,2.0,MN,1718503394
125,colonia,50.9333,6.95,288.64,70,0,3.6,DE,1718503141
126,kodiak,57.79,-152.4072,290.88,52,0,4.12,US,1718503394
127,hithadhoo,-0.6,73.0833,301.16,74,4,1.42,MV,1718503227
128,hargeysa,9.56,44.065,294.18,58,24,10.45,SO,1718503394
129,port lincoln,-34.7333,135.8667,286.49,69,11,4.33,AU,1718503394
130,maloye ganyushkino,46.6,49.2667,298.46,64,3,2.19,KZ,1718503394
131,malpica,43.3228,-8.8105,289.47,79,100,5.73,ES,1718503394
132,rumoi,43.9344,141.6428,295.61,66,100,3.86,JP,1718503394
133,hadibu,12.65,54.0333,300.66,80,92,6.91,YE,1718503394
134,nelson bay,-32.7167,152.15,289.26,60,3,1.34,AU,1718503394
135,tamuin,21.9833,-98.75,302.49,60,1,5.65,MX,1718503395
136,olavarria,-36.8927,-60.3225,283.17,65,4,1.59,AR,1718503395
137,mar del plata,-38.0023,-57.5575,285.3,71,0,2.68,AR,1718503144
138,saudarkrokur,65.7461,-19.6394,282.95,83,63,0.18,IS,1718503267
139,port elizabeth,-33.918,25.5701,284.44,98,7,1.54,ZA,1718503391
140,thompson,55.7435,-97.8558,288.24,94,75,5.66,CA,1718503149
141,ponta delgada,37.7333,-25.6667,292.55,88,40,4.12,PT,1718503210
142,santiago de cao,-7.9589,-79.2392,290.22,88,50,4.63,PE,1718503269
143,bonthe,7.5264,-12.505,298.05,90,100,3.23,SL,1718503395
144,al ghayzah,16.2079,52.176,301.45,84,0,1.42,YE,1718503395
145,portales,34.1862,-103.3344,306.89,32,68,1.2,US,1718503181
146,al lagowa,11.4,29.1333,299.94,56,90,3.68,SD,1718503395
147,nouadhibou,20.931,-17.0347,295.14,73,4,8.23,MR,1718503395
148,tenkodogo,11.78,-0.3697,301.56,59,100,1.38,BF,1718503396
149,longyearbyen,78.2186,15.6401,278.06,65,40,7.2,SJ,1718503396
150,ugoofaaru,5.6667,73.0,301.7,76,100,5.39,MV,1718503396
151,punta arenas,-53.15,-70.9167,271.21,86,40,5.66,CL,1718503099
152,vangviang,18.9333,102.45,300.8,72,100,0.64,LA,1718503236
153,sao jose da coroa grande,-8.8978,-35.1478,298.38,76,44,6.33,BR,1718503396
154,walvis bay,-22.9575,14.5053,296.68,15,0,8.23,NA,1718503396
155,saranac lake,44.3295,-74.1313,282.68,84,0,0.0,US,1718503396
156,opuwo,-18.0607,13.84,285.26,28,0,3.39,NA,1718503396
157,barra de santo antonio,-9.4047,-35.5072,298.75,71,11,5.94,BR,1718503396
158,kapa'a,22.0752,-159.319,304.14,79,10,3.58,US,1718503191
159,haiku-pauwela,20.9219,-156.3051,301.58,68,1,6.71,US,1718503297
160,ciudad lazaro cardenas,17.9583,-102.2,301.0,84,23,2.03,MX,1718503373
161,nerchinsk,51.9833,116.5833,291.73,45,88,6.28,RU,1718503397
162,san clemente del tuyu,-36.3569,-56.7235,285.66,67,76,1.12,AR,1718503198
163,avarua,-21.2078,-159.775,300.18,78,0,6.69,CK,1718503224
164,dunedin,-45.8742,170.5036,281.95,82,76,3.56,NZ,1718503282
165,vilyuchinsk,52.9306,158.4028,288.3,81,100,3.75,RU,1718503217
166,vorkuta,67.5,64.0,277.1,81,100,3.58,RU,1718503397
167,shangzhi,45.2167,127.9667,290.89,81,91,3.13,CN,1718503397
168,ilulissat,69.2167,-51.1,280.16,65,40,1.03,GL,1718503397
169,manicore,-5.8092,-61.3003,299.71,67,89,1.02,BR,1718503398
170,lompoc,34.6391,-120.4579,293.23,66,0,9.26,US,1718503253
171,verkhnevilyuysk,63.4453,120.3167,280.01,92,100,3.27,RU,1718503398
172,grand falls-windsor,48.9332,-55.6649,287.87,93,100,0.45,CA,1718503398
173,melendugno,40.2747,18.3368,291.51,60,49,0.7,IT,1718503398
174,dul'durga,50.6761,113.5931,294.85,33,100,7.83,RU,1718503398
175,nova vicosa,-17.8919,-39.3719,295.72,86,48,1.17,BR,1718503312
176,pacific grove,36.6177,-121.9166,294.38,73,0,6.69,US,1718503204
177,westport,41.1415,-73.3579,294.27,67,0,2.94,US,1718503398
178,anadyr,64.75,177.4833,286.43,58,95,7.0,RU,1718503269
179,margaret river,-33.95,115.0667,290.07,74,29,4.65,AU,1718503398
180,belmonte,-15.8631,-38.8828,296.77,79,37,3.04,BR,1718503398
181,guerrero negro,27.9769,-114.0611,291.28,80,0,7.01,MX,1718503398
182,saint-pierre,-21.3393,55.4781,294.92,94,100,2.57,RE,1718503399
183,happy valley-goose bay,53.3168,-60.3315,287.32,54,75,2.57,CA,1718503213
184,inirida,3.8653,-67.9239,295.35,98,100,0.25,CO,1718503399
185,muisne,0.6,-80.0333,297.22,87,100,1.01,EC,1718503399
186,yorkton,51.2167,-102.4677,294.06,49,75,1.54,CA,1718503254
187,lebu,-37.6167,-73.65,282.68,91,16,1.65,CL,1718503344
188,smithers,54.7804,-127.1743,284.33,82,100,5.66,CA,1718503399
189,amga,60.8953,131.9608,295.17,42,88,5.74,RU,1718503399
190,fort bragg,35.139,-79.006,302.06,55,0,2.57,US,1718503284
191,lihue,21.9789,-159.3672,303.73,70,40,6.69,US,1718503400
192,julayjilah,25.5,49.6,303.43,21,0,2.02,SA,1718503400
193,al bardiyah,31.7561,25.0865,294.59,80,36,7.48,LY,1718503400
194,st. john's,47.5649,-52.7093,290.75,94,100,8.75,CA,1718503221
195,dudinka,69.4058,86.1778,275.19,89,100,4.47,RU,1718503400
196,seven pagodas,12.6264,80.1722,303.78,71,100,6.59,IN,1718503400
197,nadi,-17.8,177.4167,301.15,69,75,4.63,FJ,1718503400
198,amol,36.4696,52.3507,296.55,76,2,0.86,IR,1718503400
199,necochea,-38.5473,-58.7368,283.8,64,0,3.05,AR,1718503209
200,papatowai,-46.5619,169.4708,280.63,88,100,3.21,NZ,1718503259
201,jeddah,21.5169,39.2192,303.07,70,0,1.54,SA,1718503202
202,talodi,10.6325,30.3797,298.18,59,100,1.14,SD,1718503400
203,togur,58.3631,82.8265,298.23,63,0,3.58,RU,1718503401
204,remire-montjoly,4.9167,-52.2667,298.17,94,75,4.63,GF,1718503246
205,kongsvinger,60.1905,11.9977,284.52,99,100,3.24,NO,1718503401
206,fale old settlement,-9.3852,-171.2468,302.04,74,100,5.82,TK,1718503401
207,sandnessjoen,66.0217,12.6316,281.44,70,1,5.29,NO,1718503401
208,college,64.8569,-147.8028,297.33,42,40,4.63,US,1718503401
209,sitka,57.0531,-135.33,287.09,72,20,6.17,US,1718503401
210,port alfred,-33.5906,26.891,288.72,86,25,1.8,ZA,1718503268
211,preobrazheniye,42.9019,133.9064,286.85,100,100,1.5,RU,1718503401
212,vila velha,-20.3297,-40.2925,296.12,83,20,3.09,BR,1718503337
213,sollenau,47.9026,16.2498,288.85,88,100,1.79,AT,1718503401
214,chany,55.3121,76.7647,295.99,80,0,4.03,RU,1718503401
215,tonota,-21.4833,27.4833,283.3,81,0,2.63,BW,1718503402
216,mejit,10.2753,170.8646,301.47,78,100,6.43,MH,1718503402
217,kailua-kona,19.6406,-155.9956,300.53,81,75,1.54,US,1718503402
218,hooper,41.1638,-112.1224,302.55,17,0,2.06,US,1718503402
219,touros,-5.1989,-35.4608,296.68,92,20,3.46,BR,1718503402
220,nadym,65.5333,72.5167,280.91,64,90,5.37,RU,1718503402
221,vernon,50.2581,-119.2691,286.73,67,100,0.45,CA,1718503266
222,nikolayevsk-on-amure,53.1406,140.73,280.49,98,100,1.34,RU,1718503402
223,tolanaro,-25.0319,46.9987,290.38,81,4,2.71,MG,1718503402
224,labytnangi,66.6572,66.4183,277.25,72,100,3.38,RU,1718503402
225,zhezqazghan,47.7833,67.7667,293.47,60,0,6.0,KZ,1718503402
226,sept-iles,50.2001,-66.3821,288.15,54,75,3.6,CA,1718503273
227,hermanus,-34.4187,19.2345,287.48,88,100,5.02,ZA,1718503256
228,la passe,45.5549,-0.8967,288.28,92,100,7.26,FR,1718503403
229,mount isa,-20.7333,139.5,294.02,40,0,4.12,AU,1718503403
230,greenwood,34.1668,-82.1165,301.57,64,0,4.63,US,1718503160
231,otelu rosu,45.5333,22.3667,287.13,72,1,1.8,RO,1718503403
232,oranjemund,-28.55,16.4333,292.24,31,100,3.04,NA,1718503403
233,harstad,68.799,16.5293,282.81,87,100,1.28,NO,1718503403
234,omdurman,15.6445,32.4777,305.63,37,100,9.43,SD,1718503403
235,narok,-1.0783,35.8601,286.65,95,64,1.22,KE,1718503403
236,mount pearl,47.5166,-52.7813,290.29,94,100,8.75,CA,1718503198
237,sechura,-5.5569,-80.8222,292.39,76,30,6.84,PE,1718503403
238,choyr,46.3611,108.3611,297.11,23,5,3.44,MN,1718503403
239,tateyama,34.9833,139.8667,296.21,83,100,2.63,JP,1718503404
240,bo phloi,14.3236,99.5161,303.87,58,99,3.01,TH,1718503404
241,holualoa,19.6228,-155.9522,298.46,74,38,3.55,US,1718503254
242,arno,60.1167,18.6333,286.36,95,100,7.29,SE,1718503404
243,kapuskasing,49.4169,-82.4331,292.15,55,20,4.63,CA,1718503404
244,yeniseysk,58.4497,92.1703,297.56,59,8,2.24,RU,1718503404
245,pathein,16.7833,94.7333,301.9,80,98,4.47,MM,1718503404
246,bukama,-9.2,25.85,288.61,42,6,1.44,CD,1718503404
247,sinazongwe,-17.2614,27.4618,286.51,57,0,2.44,ZM,1718503404
248,lucerne valley,34.4439,-116.9678,304.72,34,0,3.79,US,1718503405
249,bogorodskoye,56.55,37.8833,289.4,88,10,1.89,RU,1718503405
250,stepnoye,51.4,46.8667,294.57,70,32,3.74,RU,1718503405
251,bure,10.7,37.0667,287.68,87,58,0.94,ET,1718503405
252,palikir - national government center,6.9248,158.1611,304.62,74,75,2.57,FM,1718503405
253,kaiapoi,-43.3783,172.6401,287.08,58,94,6.17,NZ,1718503405
254,cockburn town,21.4612,-71.1419,300.78,81,100,4.27,TC,1718503270
255,porto novo,6.4965,2.6036,297.86,88,100,1.77,BJ,1718503394
256,selfoss,63.9331,-20.9971,283.17,76,97,2.45,IS,1718503315
257,nizhneangarsk,55.7833,109.55,283.71,56,90,1.79,RU,1718503406
258,isangel,-19.55,169.2667,302.21,79,40,3.09,VU,1718503406
259,new shagunnu,10.3396,4.4688,299.55,79,100,2.15,NG,1718503406
260,olinda,-8.0089,-34.8553,298.0,83,75,7.72,BR,1718503223
261,tomar,39.602,-8.4092,287.75,85,28,3.9,PT,1718503406
262,okha,53.5739,142.9478,280.51,89,100,6.71,RU,1718503406
263,sola,-13.8833,167.55,299.19,81,100,2.03,VU,1718503406
264,sergeyevka,53.88,67.4158,296.81,76,58,2.2,KZ,1718503406
265,saint-amand-montrond,46.75,2.5,285.72,90,57,4.41,FR,1718503406
266,benguela,-12.5763,13.4055,293.56,78,54,1.98,AO,1718503406
267,sezanne,48.7205,3.7234,287.03,88,58,5.61,FR,1718503406
268,garhi khairo,28.0606,67.9803,309.42,42,9,4.88,PK,1718503407
269,morehead city,34.7229,-76.726,298.17,76,0,3.09,US,1718503407
270,uniao da vitoria,-26.23,-51.0864,287.66,89,32,0.24,BR,1718503369
271,susuman,62.7833,148.1667,290.36,48,29,5.36,RU,1718503407
272,utrik,11.2278,169.8474,301.48,76,84,6.23,MH,1718503407
273,ma'rib,15.4591,45.3253,300.72,32,11,2.01,YE,1718503407
274,ierapetra,35.01,25.7353,299.34,46,0,4.47,GR,1718503407
275,jinka,5.65,36.65,289.01,85,44,1.54,ET,1718503407
276,progreso,21.2833,-89.6667,297.21,97,58,4.55,MX,1718503407
277,meadow lake,34.8014,-106.5436,304.99,29,8,3.39,US,1718503408
278,mariental,-24.6333,17.9667,284.09,36,0,4.79,NA,1718503408
279,vegreville,53.5001,-112.0518,290.45,43,100,5.66,CA,1718503341
280,kerikeri,-35.2268,173.9474,288.66,86,100,3.05,NZ,1718503408
281,nguigmi,14.2495,13.1092,302.9,54,67,7.03,NE,1718503408
282,whangarei,-35.7317,174.3239,289.26,80,100,2.62,NZ,1718503408
283,bizerte,37.2744,9.8739,299.15,53,40,3.09,TN,1718503408
284,kikuchi,32.9833,130.8167,301.03,69,75,2.57,JP,1718503408
285,talnakh,69.4865,88.3972,274.93,78,62,4.83,RU,1718503233
286,oriximina,-1.7656,-55.8661,299.43,78,94,1.45,BR,1718503408
287,qamdo,31.1667,97.2333,285.02,64,51,2.51,CN,1718503408
288,bodaybo,57.8506,114.1933,283.01,72,99,4.36,RU,1718503409
289,bamboo flat,11.7,92.7167,302.2,84,40,2.57,IN,1718503409
290,la dorada,5.4478,-74.6631,297.58,94,100,1.03,CO,1718503409
291,hammerfest,70.6634,23.6821,279.4,100,100,4.63,NO,1718503409
292,mossel bay,-34.1831,22.146,285.11,86,100,3.31,ZA,1718503409
293,san luis,-33.295,-66.3356,285.82,59,100,1.48,AR,1718503273
294,la mira tumbiscatio,18.6833,-102.2833,302.1,70,0,3.0,MX,1718503409
295,mersa matruh,31.3525,27.2453,297.26,88,40,4.12,EG,1718503409
296,quinte west,44.1834,-77.5662,289.89,59,20,3.09,CA,1718503410
297,lorengau,-2.0226,147.2712,301.72,77,100,3.36,PG,1718503410
298,new norfolk,-42.7826,147.0587,284.22,78,100,2.34,AU,1718503410
299,sosnovka,56.255,51.2842,292.76,90,16,1.09,RU,1718503410
300,olenino,56.2092,33.4889,284.96,87,48,2.56,RU,1718503410
301,tokar,18.4254,37.729,302.85,47,0,1.85,SD,1718503410
302,malanje,-9.5402,16.341,286.02,35,100,1.94,AO,1718503410
303,alofi,-19.0595,-169.9187,300.09,78,75,4.63,NU,1718503410
304,conceicao da barra,-18.5933,-39.7322,294.7,90,2,0.28,BR,1718503410
305,kill devil hills,36.0307,-75.676,295.92,84,0,4.12,US,1718503384
306,nizhniy novgorod,56.3287,44.002,290.7,100,50,2.0,RU,1718503204
307,pisco,-13.7,-76.2167,290.18,88,100,2.06,PE,1718503410
308,kuala belait,4.5833,114.1833,300.24,91,100,3.57,BN,1718503212
309,yanam,16.7333,82.2167,304.56,58,34,3.32,IN,1718503411
310,sao gabriel da cachoeira,-0.1303,-67.0892,296.13,99,100,0.71,BR,1718503210
311,puerto deseado,-47.7503,-65.8938,278.14,64,99,2.51,AR,1718503283
312,newman,37.3138,-121.0208,303.72,27,0,7.15,US,1718503358
313,olyokminsk,60.3736,120.4264,280.57,94,100,4.48,RU,1718503411
314,atafu village,-8.5421,-172.5159,301.98,73,23,4.52,TK,1718503171
315,chernyshevskiy,63.0128,112.4714,285.95,40,94,4.04,RU,1718503411
316,nyala,12.05,24.8833,302.01,46,88,3.3,SD,1718503411
317,sarangani,5.4033,125.4636,300.81,78,100,3.46,PH,1718503411
318,tura,25.5198,90.2201,300.35,92,94,2.81,IN,1718503178
319,banswara,23.55,74.45,304.44,54,75,5.84,IN,1718503411
320,polyarnyy,69.1989,33.4478,283.36,95,100,4.02,RU,1718503411
321,sotik post,-0.7813,35.3416,285.99,98,84,1.19,KE,1718503412
322,ellsworth,44.5434,-68.4195,288.45,70,0,2.06,US,1718503388
323,nuku'alofa,-21.1333,-175.2,301.34,83,40,4.12,TO,1718503412
324,port moresby,-9.4431,147.1797,303.83,55,40,5.14,PG,1718503412
325,ar ruways,24.1103,52.7306,304.87,38,0,3.56,AE,1718503412
326,aykhal,66.0,111.5,282.84,47,100,7.34,RU,1718503412
327,sinnar,13.5691,33.5672,301.11,57,100,5.88,SD,1718503412
328,livingston,55.9029,-3.5226,283.64,90,75,2.06,GB,1718503250
329,east london,-33.0153,27.9116,289.76,80,44,2.27,ZA,1718503413
330,san mariano,7.5,126.0,302.11,71,90,1.42,PH,1718503413
331,kachug,53.9606,105.8817,295.96,40,16,0.45,RU,1718503413
332,taroa,8.7058,171.2275,301.64,78,74,6.07,MH,1718503413
333,barda,40.3744,47.1267,296.12,73,0,0.68,AZ,1718503413
334,santa elena de uairen,4.6167,-61.1333,291.89,89,100,1.34,VE,1718503413
335,akcaabat,41.0212,39.5715,296.08,60,75,2.06,TR,1718503413
336,rmi capitol,7.0893,171.3805,303.12,79,100,3.09,MH,1718503413
337,portimao,37.1386,-8.5378,287.72,84,0,4.46,PT,1718503413
338,rongelap,11.1635,166.8941,301.4,77,31,6.77,MH,1718503413
339,chui,-33.6971,-53.4616,284.46,87,0,0.97,UY,1718503414
340,magadan,59.5667,150.8,287.33,80,84,3.43,RU,1718503391
341,trevelin,-43.0858,-71.4639,277.86,93,100,1.92,AR,1718503414
342,north bend,43.4065,-124.2243,290.51,63,0,4.63,US,1718503414
343,ancud,-41.8697,-73.8203,281.81,82,100,3.88,CL,1718503212
344,suva,-18.1416,178.4415,300.86,83,75,1.03,FJ,1718503414
345,sacaba,20.5833,-89.9833,298.0,97,85,2.61,MX,1718503414
346,isafjordur,66.0755,-23.124,281.79,77,47,2.99,IS,1718503414
347,keflavik,64.0049,-22.5624,283.1,100,100,5.14,IS,1718503414
348,igrim,63.1906,64.4162,283.53,94,100,4.08,RU,1718503414
349,san antonio,29.4241,-98.4936,306.44,57,0,8.75,US,1718502872
350,isabela,6.7085,121.9711,300.18,68,82,0.8,PH,1718503414
351,campo gallo,-26.5833,-62.85,290.16,60,100,2.77,AR,1718503415
352,sinabang,2.4803,96.3801,299.22,90,100,4.67,ID,1718503415
353,ajaccio,42.0,8.9167,289.18,87,0,3.6,FR,1718503342
354,balabac,7.9868,117.0645,303.28,69,44,4.33,PH,1718503415
355,fengcheng,40.4536,124.0717,299.18,44,3,4.31,CN,1718503415
356,strathalbyn,-35.2667,138.9,288.19,99,1,2.77,AU,1718503415
357,nova sintra,14.8667,-24.7167,296.77,81,14,4.86,CV,1718503415
358,oroqen zizhiqi,50.5667,123.7167,287.48,96,100,1.56,CN,1718503415
359,silifke,36.3778,33.9344,298.75,57,0,2.61,TR,1718503415
360,buarcos,40.166,-8.8768,288.14,89,100,3.59,PT,1718503331
361,ta`u,-14.2336,-169.5144,300.9,79,92,8.72,AS,1718503415
362,el burgo de osma,41.5862,-3.0652,284.0,51,25,1.61,ES,1718503415
363,caxias,38.7031,-9.2767,289.84,83,40,4.63,PT,1718503416
364,sisteron,44.1876,5.9462,285.6,95,100,1.98,FR,1718503416
365,coahuayana de hidalgo,18.7,-103.6583,300.23,78,6,1.23,MX,1718503416
366,teykovo,56.858,40.5369,289.85,95,70,2.17,RU,1718503270
367,papao,-17.75,-149.55,301.97,83,27,7.81,PF,1718503416
368,dingwall,57.5953,-4.4272,285.41,95,100,1.19,GB,1718503416
369,poronaysk,49.2167,143.1167,280.66,98,100,2.01,RU,1718503416
370,dali,25.7,100.1833,293.6,82,86,1.7,CN,1718503416
371,pangody,65.85,74.4859,280.69,61,70,5.05,RU,1718503123
372,howrah,22.5892,88.3103,305.15,79,20,4.12,IN,1718503416
373,san juan,-31.5375,-68.5364,286.15,53,0,1.32,AR,1718503248
374,chemolgan,43.1897,76.5292,291.96,45,0,0.41,KZ,1718503417
375,coxen hole,16.3244,-86.5366,302.75,79,20,9.77,HN,1718503417
376,kindu,-2.95,25.95,293.94,53,100,0.89,CD,1718503417
377,rutana,-3.8667,30.1,286.4,72,74,0.94,BI,1718503417
378,corte,42.25,9.25,291.37,45,19,3.04,FR,1718503383
379,betio village,1.358,172.9211,303.17,74,68,4.81,KI,1718503417
380,brookings,44.3114,-96.7984,296.34,91,75,4.12,US,1718503130
381,cururupu,-1.8283,-44.8683,295.86,97,10,0.44,BR,1718503365
382,hilo,19.7297,-155.09,301.0,76,20,3.09,US,1718503122
383,waingapu,-9.6567,120.2641,301.54,63,0,4.35,ID,1718503418
384,nagqu,31.5,92.0,284.58,54,8,2.94,CN,1718503418
385,kem',64.9555,34.5793,284.02,85,5,2.54,RU,1718503418
386,georgetown,5.4112,100.3354,303.11,74,20,2.06,MY,1718503196
387,griffith,41.5284,-87.4237,300.11,52,0,5.14,US,1718503418
388,ulladulla,-35.35,150.4667,286.64,45,1,4.65,AU,1718503418
389,marks,51.7111,46.7486,296.02,70,54,2.75,RU,1718503418
390,xingtai,37.0631,114.4942,301.85,43,99,2.78,CN,1718503203
391,muret,43.3333,1.25,286.26,95,4,1.64,FR,1718503418
392,akdepe,42.0551,59.3788,298.2,35,100,4.49,TM,1718503418
393,fisterra,42.9049,-9.2629,289.68,95,100,5.62,ES,1718503418
394,obong,9.741,123.5098,302.59,64,62,1.42,PH,1718503418
395,quesada,10.3238,-84.4271,294.88,96,99,2.86,CR,1718503418
396,balsas,-7.5325,-46.0356,299.96,52,100,1.06,BR,1718503212
397,kamaishi,39.2667,141.8833,297.84,57,100,3.5,JP,1718503419
398,nyagan,62.1406,65.3936,286.76,90,100,2.03,RU,1718503419
399,tarawa,1.419,172.984,303.2,74,75,3.6,KI,1718503419
400,portage la prairie,49.9728,-98.2926,292.65,89,61,7.51,CA,1718503299
401,choma,-16.8065,26.9531,281.63,52,2,1.75,ZM,1718503419
402,zulpich,50.7,6.65,288.0,71,75,1.54,DE,1718503419
403,masterton,-40.9597,175.6575,286.42,61,3,3.22,NZ,1718503419
404,cooper's town,26.8667,-77.5167,301.68,72,100,3.85,BS,1718503419
405,hassi messaoud,31.6804,6.0729,304.07,18,0,2.06,DZ,1718503419
406,fontanelas,38.8472,-9.4372,289.11,84,27,6.43,PT,1718503419
407,oamaru,-45.0784,170.9801,282.8,80,51,1.08,NZ,1718503420
408,selkirk,50.1436,-96.8845,299.23,94,100,8.69,CA,1718503365
409,castillos,-34.1667,-53.8333,282.84,90,1,0.65,UY,1718503420
410,miri,4.4148,114.0089,300.23,89,40,0.0,MY,1718503420
411,kuqa,41.7278,82.9364,298.54,26,100,1.74,CN,1718503212
412,sheridan,44.8333,-106.9173,297.69,60,0,4.63,US,1718503420
413,cannonvale,-20.2833,148.7,298.48,38,0,3.37,AU,1718503420
414,china,25.7,-99.2333,303.99,51,4,12.08,MX,1718503420
415,fort mcmurray,56.7268,-111.381,285.92,82,100,3.6,CA,1718503215
416,tuzla,44.5428,18.6694,286.13,100,0,0.0,BA,1718503420
417,xam nua,20.4197,104.0439,298.27,78,100,1.13,LA,1718503420
418,issenye,-2.0,34.3333,290.77,84,85,2.02,TZ,1718503420
419,charlottetown,46.2352,-63.1267,286.4,97,75,3.09,CA,1718503217
420,kununurra,-15.7667,128.7333,301.14,28,4,4.63,AU,1718503421
421,tangalle,6.024,80.7911,299.24,88,97,4.64,LK,1718503421
422,carbonear,47.7332,-53.2148,291.01,96,100,8.39,CA,1718503421
423,santa helena,-2.2311,-45.3,295.66,97,47,0.94,BR,1718503271
424,merizo village,13.2658,144.6691,305.0,83,88,7.77,GU,1718503421
425,beledweyne,4.7358,45.2036,296.9,77,12,6.76,SO,1718503421
426,vacaria,-28.5122,-50.9339,288.79,95,100,1.79,BR,1718503421
427,padang,-0.9492,100.3543,301.18,94,100,0.81,ID,1718503421
428,kedrovyy,56.1667,91.8167,298.38,53,41,2.41,RU,1718503421
429,baraut,29.1,77.2667,311.41,21,0,4.84,IN,1718503422
430,san bernardo del viento,9.3533,-75.9524,299.76,82,100,3.63,CO,1718503422
431,rikaze,29.25,88.8833,290.23,35,46,2.06,CN,1718503422
432,carutapera,-1.195,-46.02,296.84,95,53,2.49,BR,1718503351
433,berezovyy,51.6667,135.7,288.46,70,100,3.29,RU,1718503422
434,howard springs,-12.497,131.047,302.1,69,4,3.65,AU,1718503422
435,melekeok village,7.4957,134.6367,302.48,68,100,0.45,PW,1718503422
436,arica,-18.475,-70.3042,290.28,72,100,1.54,CL,1718503422
437,ryazhsk,53.7038,40.1109,288.33,90,100,3.21,RU,1718503422
438,berrotaran,-32.451,-64.3887,286.05,41,6,2.16,AR,1718503422
439,keetmanshoop,-26.5833,18.1333,288.66,26,49,5.14,NA,1718503422
440,bodden town,19.2833,-81.25,302.15,83,20,4.63,KY,1718503391
441,garachico,28.7781,-17.7646,293.21,68,75,5.66,ES,1718503423
442,ginir,7.1333,40.7,285.89,81,34,1.85,ET,1718503423
443,petropavl,54.8753,69.1628,296.89,79,0,3.26,KZ,1718503423
444,kruisfontein,-34.0033,24.7314,284.8,88,36,2.16,ZA,1718503423
445,kirakira,-10.4544,161.9205,301.11,79,53,0.45,SB,1718503423
446,shimoda,34.6667,138.95,298.21,78,100,2.62,JP,1718503423
447,dauphin,51.1494,-100.0502,300.23,57,0,1.03,CA,1718503423
448,taiynsha,53.8478,69.7639,297.24,71,11,2.37,KZ,1718503423
449,arraial do cabo,-22.9661,-42.0278,295.04,86,2,8.64,BR,1718503198
450,pechora,65.1472,57.2244,278.07,85,58,3.58,RU,1718503423
451,lloydminster,53.2835,-110.0016,290.27,42,100,3.09,CA,1718503271
452,sinop,41.7711,34.8709,288.54,84,74,1.03,TR,1718503423
453,ust'-kut,56.7938,105.7672,290.06,39,97,1.79,RU,1718503424
454,kargasok,59.0556,80.8572,294.8,77,74,3.58,RU,1718503424
455,kijang,35.2442,129.2139,299.0,55,6,1.49,KR,1718503424
456,aginskoye,51.1,114.53,293.02,34,100,7.29,RU,1718503424
457,vredendal,-31.6683,18.5012,291.7,33,100,4.66,ZA,1718503424
458,moranbah,-22.0016,148.0466,294.91,27,0,2.32,AU,1718503424
459,montanha,-18.1269,-40.3633,293.28,92,15,2.24,BR,1718503424
460,la ronge,55.1001,-105.2842,289.27,82,75,4.12,CA,1718503389
461,ciudad madero,22.2667,-97.8333,302.26,79,20,9.26,MX,1718503275
462,brisas de zicatela,15.8369,-97.0419,301.01,83,72,2.47,MX,1718503424
463,harper,4.375,-7.7169,298.45,83,100,4.51,LR,1718503425
464,dapitan,8.6464,123.4208,303.34,65,100,1.97,PH,1718503425
465,kyzyl-mazhalyk,51.1333,90.6,293.1,58,99,0.45,RU,1718503425
466,jayapura,-2.5333,140.7,302.81,74,84,1.42,ID,1718503425
467,quellon,-43.1167,-73.6167,281.02,90,100,3.97,CL,1718503425
468,mao,39.8885,4.2658,292.46,94,0,4.12,ES,1718503425
469,khorinsk,52.1657,109.7726,295.41,27,99,5.33,RU,1718503425
470,rio grande,-32.035,-52.0986,289.23,85,96,3.64,BR,1718503041
471,atasu,48.6814,71.6433,294.78,60,30,4.24,KZ,1718503425
472,murun-kuren,49.6342,100.1625,294.85,43,79,1.25,MN,1718503425
473,fort st. john,56.2499,-120.8529,281.09,93,100,5.66,CA,1718503425
474,malango,-2.9627,119.9001,299.55,65,53,1.62,ID,1718503425
475,hamilton,39.1834,-84.5333,295.58,53,60,2.07,US,1718503210
476,port douglas,-16.4833,145.4667,297.23,59,5,2.6,AU,1718503426
477,broken hill,-31.95,141.4333,285.05,60,22,5.51,AU,1718503426
478,tayaman,13.2295,120.5726,302.06,72,100,2.94,PH,1718503426
479,skopin,53.8249,39.5505,288.06,93,93,3.1,RU,1718503426
480,priargunsk,50.3691,119.1012,292.66,55,98,5.65,RU,1718503426
481,telese,41.2173,14.5277,294.49,58,99,2.01,IT,1718503426
482,kilkenny,52.6542,-7.2522,282.14,95,6,2.1,IE,1718503426
483,broome,42.2506,-75.833,285.88,92,0,0.45,US,1718503426
484,codrington,-38.2667,141.9667,285.81,60,96,6.86,AU,1718503426
485,brokopondo,4.75,-55.1667,299.09,80,77,3.4,SR,1718503329
486,vadso,70.0744,29.7487,284.64,87,40,0.0,NO,1718503427
487,usogorsk,63.4106,48.6872,279.63,94,81,0.65,RU,1718503427
488,lewistown,40.5992,-77.5714,291.57,100,9,1.9,US,1718503196
489,prince rupert,54.3161,-130.3201,284.98,87,100,8.75,CA,1718503303
490,naze,28.3667,129.4833,299.66,80,100,3.86,JP,1718503427
491,mokhsogollokh,61.4681,128.9203,294.39,48,100,3.88,RU,1718503219
492,filingue,14.3521,3.3168,302.46,47,92,6.3,NE,1718503427
493,turpan,42.9333,89.1667,304.15,31,0,2.42,CN,1718503427
494,fortaleza,-3.7227,-38.5247,299.38,83,0,3.09,BR,1718503427
495,crane,31.3974,-102.3501,305.88,33,0,9.84,US,1718503427
496,ulanhot,46.0833,122.0833,300.11,33,46,4.77,CN,1718503427
497,oban,56.4127,-5.4706,282.8,93,100,0.27,GB,1718503427
498,salaqi,40.5414,110.5108,299.11,21,100,2.23,CN,1718503427
499,lerwick,60.1545,-1.1494,284.15,87,100,8.77,GB,1718503428
500,box elder,41.5005,-112.8764,293.78,43,97,9.43,US,1718503428
501,odienne,9.51,-7.5692,296.18,88,23,1.52,CI,1718503428
502,ola,59.5833,151.2833,287.67,81,43,3.41,RU,1718503428
503,luang namtha,20.9497,101.4011,297.16,100,100,1.03,LA,1718503428
504,mount gambier,-37.8333,140.7667,285.53,56,100,3.87,AU,1718503428
505,paracuru,-3.41,-39.0306,299.32,90,54,3.65,BR,1718503428
506,kharp,66.8014,65.8081,276.88,70,100,1.52,RU,1718503428
507,creston,41.0586,-94.3614,298.13,78,0,6.17,US,1718503428
508,cheremshan,54.6667,51.5,293.26,82,53,0.21,RU,1718503429
509,taulaga,-11.0553,-171.0883,301.76,76,89,5.06,AS,1718503429
510,lae,-6.7221,146.9847,299.54,74,53,2.61,PG,1718503429
511,saipan,15.1355,145.701,304.54,70,40,7.72,MP,1718503429
512,sile,41.1754,29.6133,291.52,67,0,0.93,TR,1718503429
513,lata,40.1629,-8.3327,285.97,97,100,0.72,PT,1718503429
514,jaumave,23.4167,-99.3833,297.48,77,61,1.67,MX,1718503429
515,minas de marcona,-15.2119,-75.1103,284.52,90,89,6.17,PE,1718503429
516,ivatsevichy,52.709,25.3401,284.27,94,4,2.18,BY,1718503429
517,puntarenas,9.9763,-84.8384,298.28,88,100,2.13,CR,1718503203
518,piton saint-leu,-21.2196,55.3151,293.19,94,100,2.57,RE,1718503430
519,vila franca do campo,37.7167,-25.4333,292.38,99,11,2.21,PT,1718503430
520,laguna,38.421,-121.4238,304.48,15,0,4.63,US,1718503430
521,kolondieba,11.0882,-6.8926,299.32,74,79,0.45,ML,1718503430
522,meybod,32.2501,54.0166,299.16,33,4,0.52,IR,1718503430
523,khromtau,50.2503,58.4347,297.87,44,41,1.54,KZ,1718503430
524,teshi old town,5.5836,-0.1072,298.08,89,80,3.46,GH,1718503430
525,khovd,48.0056,91.6419,293.37,42,90,2.0,MN,1718503430
526,koungou,-12.7336,45.2042,299.99,78,0,6.69,YT,1718503430
527,la'ie,21.6477,-157.9253,303.13,74,0,1.79,US,1718503430
528,tibati,6.4667,12.6333,292.49,98,100,0.16,CM,1718503431
529,sainte-suzanne,-20.9061,55.6089,295.25,96,100,5.14,RE,1718503431
530,namibe,-15.1961,12.1522,292.59,77,0,2.62,AO,1718503431
531,san antonio de pale,-1.4014,5.6325,297.68,82,100,5.17,GQ,1718503241
532,kone,-21.0595,164.8658,298.97,44,18,3.69,NC,1718503431
533,acarau,-2.8856,-40.12,297.75,87,100,3.8,BR,1718503431
534,darwin,-12.4611,130.8418,302.14,54,0,3.09,AU,1718503203
535,piti village,13.4626,144.6933,305.18,77,98,7.53,GU,1718503431
536,yuzhno-kurilsk,44.0306,145.8556,285.03,89,100,3.04,RU,1718503431
537,galesong,-5.3166,119.3661,303.16,67,51,0.95,ID,1718503431
538,bedford,52.1346,-0.4663,285.23,86,100,5.48,GB,1718503431
539,riviere-du-loup,47.8304,-69.5342,286.3,54,19,1.03,CA,1718503284
540,mikhaylovskoye,51.8239,79.7172,291.7,73,94,0.55,RU,1718503431
541,angaur state,6.906,134.13,301.77,70,69,0.17,PW,1718503432
542,uaua,-9.8414,-39.4817,292.41,83,4,5.33,BR,1718503432
543,isheyevka,54.4167,48.2667,294.94,94,100,2.14,RU,1718503432
544,el porvenir,13.7617,-87.3458,297.78,100,100,1.32,HN,1718503432
545,elkins,38.9259,-79.8467,290.54,85,92,1.51,US,1718503201
546,tromso,69.6496,18.957,281.16,93,100,1.54,NO,1718503432
547,toliara,-23.35,43.6667,290.08,84,0,4.79,MG,1718503432
548,pauini,-7.7136,-66.9764,300.42,66,100,0.83,BR,1718503432
549,vilyuysk,63.7553,121.6247,281.48,96,100,3.13,RU,1718503432
550,paita,-5.0892,-81.1144,292.08,80,89,6.77,PE,1718503309
551,bathsheba,13.2167,-59.5167,301.49,78,40,7.72,BB,1718503432
552,puerto aysen,-45.4,-72.7,278.94,99,100,1.79,CL,1718503340
553,ocean shores,46.9737,-124.1563,287.01,78,75,8.75,US,1718503243
554,margate,51.3813,1.3862,285.54,86,25,2.68,GB,1718503353
555,egilsstadir,65.2653,-14.3948,279.1,93,75,2.57,IS,1718503433
556,udangudi,8.4333,78.0167,301.25,74,75,4.04,IN,1718503213
557,escanaba,45.7453,-87.0646,290.66,77,40,3.6,US,1718503424
558,bintulu,3.1667,113.0333,301.38,83,20,1.03,MY,1718503433
559,eydhafushi,5.1033,73.0708,301.74,75,60,5.74,MV,1718503250
560,strezhevoy,60.7333,77.5889,293.13,86,100,3.13,RU,1718503433
561,chapaev,50.2,51.1667,297.83,52,6,2.89,KZ,1718503433
562,zouerate,22.7187,-12.4521,302.1,23,0,6.06,MR,1718503433
563,kaman,27.65,77.2667,311.12,25,0,7.48,IN,1718503433
564,kingston,17.997,-76.7936,302.68,62,20,8.75,JM,1718502850
565,maridi,4.9158,29.4742,292.39,96,100,2.25,SS,1718503434
566,tralee,52.2704,-9.7026,282.51,93,38,2.46,IE,1718503434
567,sao joao do paraiso,-15.3136,-42.0144,288.26,94,1,2.86,BR,1718503434
568,cullowhee,35.3137,-83.1765,297.97,87,100,2.06,US,1718503434
569,ishigaki,24.3448,124.1572,304.22,84,20,7.2,JP,1718503434
570,kapit,2.0167,112.9333,298.4,92,100,0.81,MY,1718503434
571,sidney,-33.8679,151.2073,288.88,52,20,6.17,AU,1718503309
572,nyurba,63.2842,118.3319,278.18,93,100,3.55,RU,1718503265
